[{"id":"18","name":"Stanford Solar Car Project","number":16,"car_name":"Arctan","country":"us","class_id":5,"lat":-34.92473,"lng":138.60522,"gps_when":"2013-10-11 01:08:31","dist_darwin":2615.536,"dist_adelaide":0.052,"gps_age":"22 hrs 4 mins 5 secs"},{"id":"8","name":"Solar Team Eindhoven","number":40,"car_name":"Stella Lux","country":"nl","class_id":6,"lat":-34.92497,"lng":138.60504,"gps_when":"2013-10-11 05:40:15","dist_darwin":2615.556,"dist_adelaide":0.08,"gps_age":"17 hrs 32 mins 21 secs"},{"id":"51","name":"Tokai University","number":10,"car_name":"Tokai Challenger","country":"jp","class_id":5,"lat":-34.92491,"lng":138.6049,"gps_when":"2013-10-11 01:13:59","dist_darwin":2615.546,"dist_adelaide":0.087,"gps_age":"21 hrs 58 mins 37 secs"},{"id":"30","name":"Sun Shuttle","number":80,"car_name":"Sun Shuttle","country":"cn","class_id":5,"lat":-34.92934,"lng":138.60066,"gps_when":"2013-10-11 07:03:09","dist_darwin":2615.883,"dist_adelaide":0.708,"gps_age":"16 hrs 9 mins 27 secs"},{"id":"17","name":"Solar Team Twente","number":21,"car_name":"Red One","country":"nl","class_id":5,"lat":-34.91812,"lng":138.60025,"gps_when":"2013-10-11 00:05:31","dist_darwin":2614.693,"dist_adelaide":0.867,"gps_age":"23 hrs 7 mins 5 secs"},{"id":"35","name":"Kogakuin University","number":88,"car_name":"OWL","country":"jp","class_id":6,"lat":-34.91797,"lng":138.60043,"gps_when":"2013-10-11 05:09:28","dist_darwin":2614.683,"dist_adelaide":0.871,"gps_age":"18 hrs 3 mins 8 secs"},{"id":"13","name":"Nuon Solar Team","number":3,"car_name":"Nuna8","country":"nl","class_id":5,"lat":-34.91794,"lng":138.59988,"gps_when":"2013-10-10 03:10:10","dist_darwin":2614.663,"dist_adelaide":0.903,"gps_age":"20 hrs 2 mins 26 secs"},{"id":"9","name":"HS Bochum SolarCar-Team","number":11,"car_name":"Sun Riser","country":"de","class_id":6,"lat":-34.91783,"lng":138.59982,"gps_when":"2013-10-11 05:53:21","dist_darwin":2614.65,"dist_adelaide":0.916,"gps_age":"17 hrs 19 mins 15 secs"},{"id":"10","name":"Jusolarteam","number":46,"car_name":"SOLBRITT","country":"se","class_id":5,"lat":-34.91747,"lng":138.60043,"gps_when":"2013-10-11 05:40:52","dist_darwin":2614.631,"dist_adelaide":0.918,"gps_age":"17 hrs 31 mins 44 secs"},{"id":"11","name":"K.I.T. Yumekobo Solar Car Project","number":51,"car_name":"K.I.T Golden Eagle 5.1","country":"jp","class_id":5,"lat":-34.91699,"lng":138.60071,"gps_when":"2013-10-11 06:20:31","dist_darwin":2614.589,"dist_adelaide":0.951,"gps_age":"16 hrs 52 mins 5 secs"},{"id":"47","name":"University of Minnesota","number":35,"car_name":"Eos","country":"us","class_id":6,"lat":-34.91745,"lng":138.59935,"gps_when":"2013-10-12 01:51:12","dist_darwin":2614.596,"dist_adelaide":0.975,"gps_age":"21 hrs 21 mins 24 secs"},{"id":"38","name":"Punch Powertrain Solar Team","number":8,"car_name":"Punch One","country":"be","class_id":5,"lat":-34.91736,"lng":138.59935,"gps_when":"2013-10-11 00:33:51","dist_darwin":2614.587,"dist_adelaide":0.983,"gps_age":"22 hrs 38 mins 45 secs"},{"id":"6","name":"EAFIT-EPM Solar Car Team","number":5,"car_name":"Primavera","country":"co","class_id":5,"lat":-34.91728,"lng":138.59933,"gps_when":"2013-10-11 06:30:36","dist_darwin":2614.578,"dist_adelaide":0.991,"gps_age":"16 hrs 42 mins 0 secs"},{"id":"3","name":"Blue Sky Solar Racing","number":77,"car_name":"not provided on entry form","country":"ca","class_id":5,"lat":-34.91702,"lng":138.59917,"gps_when":"2013-10-11 05:16:35","dist_darwin":2614.546,"dist_adelaide":1.023,"gps_age":"17 hrs 56 mins 1 secs"},{"id":"19","name":"UNSW Solar Racing Team -SUNSWIFT","number":75,"car_name":"eVe","country":"au","class_id":6,"lat":-34.89337,"lng":138.60339,"gps_when":"2013-10-11 03:17:39","dist_darwin":2612.192,"dist_adelaide":3.466,"gps_age":"19 hrs 54 mins 57 secs"},{"id":"43","name":"Clenergy TeamArrow","number":30,"car_name":"Arrow1-GT","country":"au","class_id":5,"lat":-34.86362,"lng":138.6013,"gps_when":"2013-10-11 02:29:05","dist_darwin":2609.009,"dist_adelaide":6.777,"gps_age":"20 hrs 43 mins 31 secs"},{"id":"2","name":"Antakari","number":4,"car_name":"Intikallpa IV","country":"cl","class_id":5,"lat":-34.84602,"lng":138.60013,"gps_when":"2013-10-12 01:28:36","dist_darwin":2607.129,"dist_adelaide":8.736,"gps_age":"21 hrs 44 mins 0 secs"},{"id":"25","name":"Western Sydney University Solar Car Project","number":13,"car_name":"Unlimited","country":"au","class_id":5,"lat":-34.94919,"lng":138.50513,"gps_when":"2013-10-11 08:14:56","dist_darwin":2615.111,"dist_adelaide":9.564,"gps_age":"14 hrs 57 mins 40 secs"},{"id":"36","name":"KUST (Kookmin University Solar Car Team)","number":82,"car_name":"Baek-Ho","country":"kr","class_id":5,"lat":-34.94882,"lng":138.50317,"gps_when":"2013-10-11 20:18:36","dist_darwin":2615.014,"dist_adelaide":9.724,"gps_age":"2 hrs 54 mins 0 secs"},{"id":"20","name":"TAFE SA Solar Spirit","number":42,"car_name":"TAFE SA Solar Spirit","country":"au","class_id":7,"lat":-33.44519,"lng":138.15436,"gps_when":"2013-10-10 22:54:14","dist_darwin":2446.677,"dist_adelaide":169.536,"gps_age":"18 mins 22 secs"},{"id":"29","name":"Goko High School","number":25,"car_name":"Musoushin","country":"jp","class_id":5,"lat":-32.50826,"lng":137.79707,"gps_when":"2013-10-10 22:16:29","dist_darwin":2337.409,"dist_adelaide":278.699,"gps_age":"56 mins 7 secs"},{"id":"24","name":"University of Michigan Solar Car Team","number":2,"car_name":"Aurum","country":"us","class_id":5,"lat":-31.90363,"lng":137.3645,"gps_when":"2013-10-10 22:55:23","dist_darwin":2260.665,"dist_adelaide":354.863,"gps_age":"17 mins 13 secs"},{"id":"15","name":"SunSPEC","number":28,"car_name":"SunSPEC4","country":"sg","class_id":6,"lat":-29.01472,"lng":134.75381,"gps_when":"2013-10-10 22:08:08","dist_darwin":1883.2,"dist_adelaide":750.218,"gps_age":"1 hrs 4 mins 28 secs"},{"id":"4","name":"Cambridge University Eco Racing","number":12,"car_name":"Evolution","country":"gb","class_id":5,"lat":-12.43011,"lng":130.89862,"gps_when":"0000-00-00 00:00:00","dist_darwin":7.16,"dist_adelaide":2617.318,"gps_age":"23 hrs 12 mins 36 secs"}]